[
    {
        "_id": {
            "$oid": "5df1bfa0ed520428cd56ac86"
        },
        "name": "San Diego Smile Dentistry",
        "abbreviation": "SD Smile",
        "address": "7710 Balboa Ave",
        "address2": "",
        "city": "San Diego",
        "state": "CA",
        "postal_code": "92111",
        "area": "sd",
        "phone": "(619) 737-6453",
        "website": "https://sd-smile.com",
        "latitude": 32.82225,
        "longitude": -117.157913,
        "cleaning": 95,
        "filling": 140,
        "extraction": 110,
        "root_canal": 725,
        "crown": 850,
        "is_active": true,
        "fake_data": "Mock Data",
        "procedure": "Adult Cleaning",
        "cost": 95
    },
    {
        "_id": {
            "$oid": "5df1bfa0ed520428cd56ac86"
        },
        "name": "San Diego Smile Dentistry",
        "abbreviation": "SD Smile",
        "address": "7710 Balboa Ave",
        "address2": "",
        "city": "San Diego",
        "state": "CA",
        "postal_code": "92111",
        "area": "sd",
        "phone": "(619) 737-6453",
        "website": "https://sd-smile.com",
        "latitude": 32.82225,
        "longitude": -117.157913,
        "cleaning": 95,
        "filling": 140,
        "extraction": 110,
        "root_canal": 725,
        "crown": 850,
        "is_active": true,
        "fake_data": "Mock Data",
        "procedure": "Composite Filling",
        "cost": 140
    },
    {
        "_id": {
            "$oid": "5df1bfa0ed520428cd56ac86"
        },
        "name": "San Diego Smile Dentistry",
        "abbreviation": "SD Smile",
        "address": "7710 Balboa Ave",
        "address2": "",
        "city": "San Diego",
        "state": "CA",
        "postal_code": "92111",
        "area": "sd",
        "phone": "(619) 737-6453",
        "website": "https://sd-smile.com",
        "latitude": 32.82225,
        "longitude": -117.157913,
        "cleaning": 95,
        "filling": 140,
        "extraction": 110,
        "root_canal": 725,
        "crown": 850,
        "is_active": true,
        "fake_data": "Mock Data",
        "procedure": "Extraction",
        "cost": 110
    },
    {
        "_id": {
            "$oid": "5df1bfa0ed520428cd56ac86"
        },
        "name": "San Diego Smile Dentistry",
        "abbreviation": "SD Smile",
        "address": "7710 Balboa Ave",
        "address2": "",
        "city": "San Diego",
        "state": "CA",
        "postal_code": "92111",
        "area": "sd",
        "phone": "(619) 737-6453",
        "website": "https://sd-smile.com",
        "latitude": 32.82225,
        "longitude": -117.157913,
        "cleaning": 95,
        "filling": 140,
        "extraction": 110,
        "root_canal": 725,
        "crown": 850,
        "is_active": true,
        "fake_data": "Mock Data",
        "procedure": "Root Canal",
        "cost": 725
    },
    {
        "_id": {
            "$oid": "5df1bfa0ed520428cd56ac86"
        },
        "name": "San Diego Smile Dentistry",
        "abbreviation": "SD Smile",
        "address": "7710 Balboa Ave",
        "address2": "",
        "city": "San Diego",
        "state": "CA",
        "postal_code": "92111",
        "area": "sd",
        "phone": "(619) 737-6453",
        "website": "https://sd-smile.com",
        "latitude": 32.82225,
        "longitude": -117.157913,
        "cleaning": 95,
        "filling": 140,
        "extraction": 110,
        "root_canal": 725,
        "crown": 850,
        "is_active": true,
        "fake_data": "Mock Data",
        "procedure": "Porcelain Crown",
        "cost": 850
    },
    {
        "_id": {
            "$oid": "5df1c076ed520428cd56ac87"
        },
        "name": "Great Smile Dental",
        "abbreviation": "Great Smile",
        "address": "5210 Balboa Ave",
        "address2": "",
        "city": "San Diego",
        "state": "CA",
        "postal_code": "92117",
        "area": "sd",
        "phone": "(858) 598-5842",
        "website": "https://great-smile-dental-orthodontics-and-periodontics.business.site/",
        "latitude": 32.81897,
        "longitude": -117.183968,
        "cleaning": 105,
        "filling": 120,
        "extraction": 110,
        "root_canal": 765,
        "crown": 1105,
        "is_active": true,
        "fake_data": "Mock Data",
        "procedure": "Adult Cleaning",
        "cost": 105
    },
    {
        "_id": {
            "$oid": "5df1c076ed520428cd56ac87"
        },
        "name": "Great Smile Dental",
        "abbreviation": "Great Smile",
        "address": "5210 Balboa Ave",
        "address2": "",
        "city": "San Diego",
        "state": "CA",
        "postal_code": "92117",
        "area": "sd",
        "phone": "(858) 598-5842",
        "website": "https://great-smile-dental-orthodontics-and-periodontics.business.site/",
        "latitude": 32.81897,
        "longitude": -117.183968,
        "cleaning": 105,
        "filling": 120,
        "extraction": 110,
        "root_canal": 765,
        "crown": 1105,
        "is_active": true,
        "fake_data": "Mock Data",
        "procedure": "Composite Filling",
        "cost": 120
    },
    {
        "_id": {
            "$oid": "5df1c076ed520428cd56ac87"
        },
        "name": "Great Smile Dental",
        "abbreviation": "Great Smile",
        "address": "5210 Balboa Ave",
        "address2": "",
        "city": "San Diego",
        "state": "CA",
        "postal_code": "92117",
        "area": "sd",
        "phone": "(858) 598-5842",
        "website": "https://great-smile-dental-orthodontics-and-periodontics.business.site/",
        "latitude": 32.81897,
        "longitude": -117.183968,
        "cleaning": 105,
        "filling": 120,
        "extraction": 110,
        "root_canal": 765,
        "crown": 1105,
        "is_active": true,
        "fake_data": "Mock Data",
        "procedure": "Extraction",
        "cost": 110
    },
    {
        "_id": {
            "$oid": "5df1c076ed520428cd56ac87"
        },
        "name": "Great Smile Dental",
        "abbreviation": "Great Smile",
        "address": "5210 Balboa Ave",
        "address2": "",
        "city": "San Diego",
        "state": "CA",
        "postal_code": "92117",
        "area": "sd",
        "phone": "(858) 598-5842",
        "website": "https://great-smile-dental-orthodontics-and-periodontics.business.site/",
        "latitude": 32.81897,
        "longitude": -117.183968,
        "cleaning": 105,
        "filling": 120,
        "extraction": 110,
        "root_canal": 765,
        "crown": 1105,
        "is_active": true,
        "fake_data": "Mock Data",
        "procedure": "Root Canal",
        "cost": 765
    },
    {
        "_id": {
            "$oid": "5df1c076ed520428cd56ac87"
        },
        "name": "Great Smile Dental",
        "abbreviation": "Great Smile",
        "address": "5210 Balboa Ave",
        "address2": "",
        "city": "San Diego",
        "state": "CA",
        "postal_code": "92117",
        "area": "sd",
        "phone": "(858) 598-5842",
        "website": "https://great-smile-dental-orthodontics-and-periodontics.business.site/",
        "latitude": 32.81897,
        "longitude": -117.183968,
        "cleaning": 105,
        "filling": 120,
        "extraction": 110,
        "root_canal": 765,
        "crown": 1105,
        "is_active": true,
        "fake_data": "Mock Data",
        "procedure": "Porcelain Crown",
        "cost": 1105
    },
    {
        "_id": {
            "$oid": "5df1c153ed520428cd56ac88"
        },
        "name": "Dental Express",
        "abbreviation": "Express",
        "address": "4110 W Point Loma Blvd",
        "address2": "",
        "city": "San Diego",
        "state": "CA",
        "postal_code": "92110",
        "area": "sd",
        "phone": "(619) 304-7327",
        "website": "https://thedentalexpress.com/w-point-loma-blvd/",
        "latitude": 32.753737,
        "longitude": -117.223805,
        "cleaning": 100,
        "filling": 120,
        "extraction": 125,
        "root_canal": 785,
        "crown": 950,
        "is_active": true,
        "fake_data": "Mock Data",
        "procedure": "Adult Cleaning",
        "cost": 100
    },
    {
        "_id": {
            "$oid": "5df1c153ed520428cd56ac88"
        },
        "name": "Dental Express",
        "abbreviation": "Express",
        "address": "4110 W Point Loma Blvd",
        "address2": "",
        "city": "San Diego",
        "state": "CA",
        "postal_code": "92110",
        "area": "sd",
        "phone": "(619) 304-7327",
        "website": "https://thedentalexpress.com/w-point-loma-blvd/",
        "latitude": 32.753737,
        "longitude": -117.223805,
        "cleaning": 100,
        "filling": 120,
        "extraction": 125,
        "root_canal": 785,
        "crown": 950,
        "is_active": true,
        "fake_data": "Mock Data",
        "procedure": "Composite Filling",
        "cost": 120
    },
    {
        "_id": {
            "$oid": "5df1c153ed520428cd56ac88"
        },
        "name": "Dental Express",
        "abbreviation": "Express",
        "address": "4110 W Point Loma Blvd",
        "address2": "",
        "city": "San Diego",
        "state": "CA",
        "postal_code": "92110",
        "area": "sd",
        "phone": "(619) 304-7327",
        "website": "https://thedentalexpress.com/w-point-loma-blvd/",
        "latitude": 32.753737,
        "longitude": -117.223805,
        "cleaning": 100,
        "filling": 120,
        "extraction": 125,
        "root_canal": 785,
        "crown": 950,
        "is_active": true,
        "fake_data": "Mock Data",
        "procedure": "Extraction",
        "cost": 125
    },
    {
        "_id": {
            "$oid": "5df1c153ed520428cd56ac88"
        },
        "name": "Dental Express",
        "abbreviation": "Express",
        "address": "4110 W Point Loma Blvd",
        "address2": "",
        "city": "San Diego",
        "state": "CA",
        "postal_code": "92110",
        "area": "sd",
        "phone": "(619) 304-7327",
        "website": "https://thedentalexpress.com/w-point-loma-blvd/",
        "latitude": 32.753737,
        "longitude": -117.223805,
        "cleaning": 100,
        "filling": 120,
        "extraction": 125,
        "root_canal": 785,
        "crown": 950,
        "is_active": true,
        "fake_data": "Mock Data",
        "procedure": "Root Canal",
        "cost": 785
    },
    {
        "_id": {
            "$oid": "5df1c153ed520428cd56ac88"
        },
        "name": "Dental Express",
        "abbreviation": "Express",
        "address": "4110 W Point Loma Blvd",
        "address2": "",
        "city": "San Diego",
        "state": "CA",
        "postal_code": "92110",
        "area": "sd",
        "phone": "(619) 304-7327",
        "website": "https://thedentalexpress.com/w-point-loma-blvd/",
        "latitude": 32.753737,
        "longitude": -117.223805,
        "cleaning": 100,
        "filling": 120,
        "extraction": 125,
        "root_canal": 785,
        "crown": 950,
        "is_active": true,
        "fake_data": "Mock Data",
        "procedure": "Porcelain Crown",
        "cost": 950
    },
    {
        "_id": {
            "$oid": "5df1c2434e1327470e50e21d"
        },
        "name": "Bay View Dental",
        "abbreviation": "Bay View",
        "address": "3737 Moraga Blvd",
        "address2": "",
        "city": "San Diego",
        "state": "CA",
        "postal_code": "92117",
        "area": "sd",
        "phone": "(858) 274-4400",
        "website": "https://www.markemersondds.com/",
        "latitude": 32.809311,
        "longitude": -117.210185,
        "cleaning": 110,
        "filling": 135,
        "extraction": 130,
        "root_canal": 780,
        "crown": 1100,
        "is_active": true,
        "fake_data": "Mock Data",
        "procedure": "Adult Cleaning",
        "cost": 110
    },
    {
        "_id": {
            "$oid": "5df1c2434e1327470e50e21d"
        },
        "name": "Bay View Dental",
        "abbreviation": "Bay View",
        "address": "3737 Moraga Blvd",
        "address2": "",
        "city": "San Diego",
        "state": "CA",
        "postal_code": "92117",
        "area": "sd",
        "phone": "(858) 274-4400",
        "website": "https://www.markemersondds.com/",
        "latitude": 32.809311,
        "longitude": -117.210185,
        "cleaning": 110,
        "filling": 135,
        "extraction": 130,
        "root_canal": 780,
        "crown": 1100,
        "is_active": true,
        "fake_data": "Mock Data",
        "procedure": "Composite Filling",
        "cost": 135
    },
    {
        "_id": {
            "$oid": "5df1c2434e1327470e50e21d"
        },
        "name": "Bay View Dental",
        "abbreviation": "Bay View",
        "address": "3737 Moraga Blvd",
        "address2": "",
        "city": "San Diego",
        "state": "CA",
        "postal_code": "92117",
        "area": "sd",
        "phone": "(858) 274-4400",
        "website": "https://www.markemersondds.com/",
        "latitude": 32.809311,
        "longitude": -117.210185,
        "cleaning": 110,
        "filling": 135,
        "extraction": 130,
        "root_canal": 780,
        "crown": 1100,
        "is_active": true,
        "fake_data": "Mock Data",
        "procedure": "Extraction",
        "cost": 130
    },
    {
        "_id": {
            "$oid": "5df1c2434e1327470e50e21d"
        },
        "name": "Bay View Dental",
        "abbreviation": "Bay View",
        "address": "3737 Moraga Blvd",
        "address2": "",
        "city": "San Diego",
        "state": "CA",
        "postal_code": "92117",
        "area": "sd",
        "phone": "(858) 274-4400",
        "website": "https://www.markemersondds.com/",
        "latitude": 32.809311,
        "longitude": -117.210185,
        "cleaning": 110,
        "filling": 135,
        "extraction": 130,
        "root_canal": 780,
        "crown": 1100,
        "is_active": true,
        "fake_data": "Mock Data",
        "procedure": "Root Canal",
        "cost": 780
    },
    {
        "_id": {
            "$oid": "5df1c2434e1327470e50e21d"
        },
        "name": "Bay View Dental",
        "abbreviation": "Bay View",
        "address": "3737 Moraga Blvd",
        "address2": "",
        "city": "San Diego",
        "state": "CA",
        "postal_code": "92117",
        "area": "sd",
        "phone": "(858) 274-4400",
        "website": "https://www.markemersondds.com/",
        "latitude": 32.809311,
        "longitude": -117.210185,
        "cleaning": 110,
        "filling": 135,
        "extraction": 130,
        "root_canal": 780,
        "crown": 1100,
        "is_active": true,
        "fake_data": "Mock Data",
        "procedure": "Porcelain Crown",
        "cost": 1100
    },
    {
        "_id": {
            "$oid": "5df1c2fd4e1327470e50e21e"
        },
        "name": "David Eshom, DDS",
        "abbreviation": "Eshom",
        "address": "8899 University Center Ln",
        "address2": "",
        "city": "San Diego",
        "state": "CA",
        "postal_code": "92122",
        "area": "sd",
        "phone": "(858) 201-4475",
        "website": "https://www.eshomdds.com/",
        "latitude": 32.869946,
        "longitude": -117.227591,
        "cleaning": 130,
        "filling": 250,
        "extraction": 250,
        "root_canal": 850,
        "crown": 1350,
        "is_active": true,
        "fake_data": "Actual Data",
        "procedure": "Adult Cleaning",
        "cost": 130
    },
    {
        "_id": {
            "$oid": "5df1c2fd4e1327470e50e21e"
        },
        "name": "David Eshom, DDS",
        "abbreviation": "Eshom",
        "address": "8899 University Center Ln",
        "address2": "",
        "city": "San Diego",
        "state": "CA",
        "postal_code": "92122",
        "area": "sd",
        "phone": "(858) 201-4475",
        "website": "https://www.eshomdds.com/",
        "latitude": 32.869946,
        "longitude": -117.227591,
        "cleaning": 130,
        "filling": 250,
        "extraction": 250,
        "root_canal": 850,
        "crown": 1350,
        "is_active": true,
        "fake_data": "Actual Data",
        "procedure": "Composite Filling",
        "cost": 250
    },
    {
        "_id": {
            "$oid": "5df1c2fd4e1327470e50e21e"
        },
        "name": "David Eshom, DDS",
        "abbreviation": "Eshom",
        "address": "8899 University Center Ln",
        "address2": "",
        "city": "San Diego",
        "state": "CA",
        "postal_code": "92122",
        "area": "sd",
        "phone": "(858) 201-4475",
        "website": "https://www.eshomdds.com/",
        "latitude": 32.869946,
        "longitude": -117.227591,
        "cleaning": 130,
        "filling": 250,
        "extraction": 250,
        "root_canal": 850,
        "crown": 1350,
        "is_active": true,
        "fake_data": "Actual Data",
        "procedure": "Extraction",
        "cost": 250
    },
    {
        "_id": {
            "$oid": "5df1c2fd4e1327470e50e21e"
        },
        "name": "David Eshom, DDS",
        "abbreviation": "Eshom",
        "address": "8899 University Center Ln",
        "address2": "",
        "city": "San Diego",
        "state": "CA",
        "postal_code": "92122",
        "area": "sd",
        "phone": "(858) 201-4475",
        "website": "https://www.eshomdds.com/",
        "latitude": 32.869946,
        "longitude": -117.227591,
        "cleaning": 130,
        "filling": 250,
        "extraction": 250,
        "root_canal": 850,
        "crown": 1350,
        "is_active": true,
        "fake_data": "Actual Data",
        "procedure": "Root Canal",
        "cost": 850
    },
    {
        "_id": {
            "$oid": "5df1c2fd4e1327470e50e21e"
        },
        "name": "David Eshom, DDS",
        "abbreviation": "Eshom",
        "address": "8899 University Center Ln",
        "address2": "",
        "city": "San Diego",
        "state": "CA",
        "postal_code": "92122",
        "area": "sd",
        "phone": "(858) 201-4475",
        "website": "https://www.eshomdds.com/",
        "latitude": 32.869946,
        "longitude": -117.227591,
        "cleaning": 130,
        "filling": 250,
        "extraction": 250,
        "root_canal": 850,
        "crown": 1350,
        "is_active": true,
        "fake_data": "Actual Data",
        "procedure": "Porcelain Crown",
        "cost": 1350
    },
    {
        "_id": {
            "$oid": "5df57b602202d9a3bb6b5382"
        },
        "name": "Dean Van Nguyen",
        "abbreviation": "Nguyen",
        "address": "4082 30th St",
        "address2": "",
        "city": "San Diego",
        "state": "CA",
        "postal_code": "92104",
        "area": "sd",
        "phone": "(619) 283-6381",
        "website": "https://www.laserimplantdental.com/",
        "latitude": 32.751887,
        "longitude": -117.130512,
        "cleaning": 120,
        "filling": 180,
        "extraction": 180,
        "root_canal": 810,
        "crown": 1150,
        "is_active": true,
        "fake_data": "Mock Data",
        "procedure": "Adult Cleaning",
        "cost": 120
    },
    {
        "_id": {
            "$oid": "5df57b602202d9a3bb6b5382"
        },
        "name": "Dean Van Nguyen",
        "abbreviation": "Nguyen",
        "address": "4082 30th St",
        "address2": "",
        "city": "San Diego",
        "state": "CA",
        "postal_code": "92104",
        "area": "sd",
        "phone": "(619) 283-6381",
        "website": "https://www.laserimplantdental.com/",
        "latitude": 32.751887,
        "longitude": -117.130512,
        "cleaning": 120,
        "filling": 180,
        "extraction": 180,
        "root_canal": 810,
        "crown": 1150,
        "is_active": true,
        "fake_data": "Mock Data",
        "procedure": "Composite Filling",
        "cost": 180
    },
    {
        "_id": {
            "$oid": "5df57b602202d9a3bb6b5382"
        },
        "name": "Dean Van Nguyen",
        "abbreviation": "Nguyen",
        "address": "4082 30th St",
        "address2": "",
        "city": "San Diego",
        "state": "CA",
        "postal_code": "92104",
        "area": "sd",
        "phone": "(619) 283-6381",
        "website": "https://www.laserimplantdental.com/",
        "latitude": 32.751887,
        "longitude": -117.130512,
        "cleaning": 120,
        "filling": 180,
        "extraction": 180,
        "root_canal": 810,
        "crown": 1150,
        "is_active": true,
        "fake_data": "Mock Data",
        "procedure": "Extraction",
        "cost": 180
    },
    {
        "_id": {
            "$oid": "5df57b602202d9a3bb6b5382"
        },
        "name": "Dean Van Nguyen",
        "abbreviation": "Nguyen",
        "address": "4082 30th St",
        "address2": "",
        "city": "San Diego",
        "state": "CA",
        "postal_code": "92104",
        "area": "sd",
        "phone": "(619) 283-6381",
        "website": "https://www.laserimplantdental.com/",
        "latitude": 32.751887,
        "longitude": -117.130512,
        "cleaning": 120,
        "filling": 180,
        "extraction": 180,
        "root_canal": 810,
        "crown": 1150,
        "is_active": true,
        "fake_data": "Mock Data",
        "procedure": "Root Canal",
        "cost": 810
    },
    {
        "_id": {
            "$oid": "5df57b602202d9a3bb6b5382"
        },
        "name": "Dean Van Nguyen",
        "abbreviation": "Nguyen",
        "address": "4082 30th St",
        "address2": "",
        "city": "San Diego",
        "state": "CA",
        "postal_code": "92104",
        "area": "sd",
        "phone": "(619) 283-6381",
        "website": "https://www.laserimplantdental.com/",
        "latitude": 32.751887,
        "longitude": -117.130512,
        "cleaning": 120,
        "filling": 180,
        "extraction": 180,
        "root_canal": 810,
        "crown": 1150,
        "is_active": true,
        "fake_data": "Mock Data",
        "procedure": "Porcelain Crown",
        "cost": 1150
    },
    {
        "_id": {
            "$oid": "5df57bd62202d9a3bb6b5383"
        },
        "name": "La Mesa Dental",
        "abbreviation": "La Mesa",
        "address": "7872 La Mesa Blvd",
        "address2": "",
        "city": "San Diego",
        "state": "CA",
        "postal_code": "91942",
        "area": "sd",
        "phone": "(619) 464-1211",
        "website": "http://www.lamesadental.com/",
        "latitude": 32.767208,
        "longitude": -117.027936,
        "cleaning": 100,
        "filling": 160,
        "extraction": 170,
        "root_canal": 795,
        "crown": 1010,
        "is_active": true,
        "fake_data": "Mock Data",
        "procedure": "Adult Cleaning",
        "cost": 100
    },
    {
        "_id": {
            "$oid": "5df57bd62202d9a3bb6b5383"
        },
        "name": "La Mesa Dental",
        "abbreviation": "La Mesa",
        "address": "7872 La Mesa Blvd",
        "address2": "",
        "city": "San Diego",
        "state": "CA",
        "postal_code": "91942",
        "area": "sd",
        "phone": "(619) 464-1211",
        "website": "http://www.lamesadental.com/",
        "latitude": 32.767208,
        "longitude": -117.027936,
        "cleaning": 100,
        "filling": 160,
        "extraction": 170,
        "root_canal": 795,
        "crown": 1010,
        "is_active": true,
        "fake_data": "Mock Data",
        "procedure": "Composite Filling",
        "cost": 160
    },
    {
        "_id": {
            "$oid": "5df57bd62202d9a3bb6b5383"
        },
        "name": "La Mesa Dental",
        "abbreviation": "La Mesa",
        "address": "7872 La Mesa Blvd",
        "address2": "",
        "city": "San Diego",
        "state": "CA",
        "postal_code": "91942",
        "area": "sd",
        "phone": "(619) 464-1211",
        "website": "http://www.lamesadental.com/",
        "latitude": 32.767208,
        "longitude": -117.027936,
        "cleaning": 100,
        "filling": 160,
        "extraction": 170,
        "root_canal": 795,
        "crown": 1010,
        "is_active": true,
        "fake_data": "Mock Data",
        "procedure": "Extraction",
        "cost": 170
    },
    {
        "_id": {
            "$oid": "5df57bd62202d9a3bb6b5383"
        },
        "name": "La Mesa Dental",
        "abbreviation": "La Mesa",
        "address": "7872 La Mesa Blvd",
        "address2": "",
        "city": "San Diego",
        "state": "CA",
        "postal_code": "91942",
        "area": "sd",
        "phone": "(619) 464-1211",
        "website": "http://www.lamesadental.com/",
        "latitude": 32.767208,
        "longitude": -117.027936,
        "cleaning": 100,
        "filling": 160,
        "extraction": 170,
        "root_canal": 795,
        "crown": 1010,
        "is_active": true,
        "fake_data": "Mock Data",
        "procedure": "Root Canal",
        "cost": 795
    },
    {
        "_id": {
            "$oid": "5df57bd62202d9a3bb6b5383"
        },
        "name": "La Mesa Dental",
        "abbreviation": "La Mesa",
        "address": "7872 La Mesa Blvd",
        "address2": "",
        "city": "San Diego",
        "state": "CA",
        "postal_code": "91942",
        "area": "sd",
        "phone": "(619) 464-1211",
        "website": "http://www.lamesadental.com/",
        "latitude": 32.767208,
        "longitude": -117.027936,
        "cleaning": 100,
        "filling": 160,
        "extraction": 170,
        "root_canal": 795,
        "crown": 1010,
        "is_active": true,
        "fake_data": "Mock Data",
        "procedure": "Porcelain Crown",
        "cost": 1010
    },
    {
        "_id": {
            "$oid": "5df57c592202d9a3bb6b5384"
        },
        "name": "Mission Family Dental",
        "abbreviation": "Mission",
        "address": "5995 Mission Gorge Rd",
        "address2": "",
        "city": "San Diego",
        "state": "CA",
        "postal_code": "92120",
        "area": "sd",
        "phone": "(619) 280-6500",
        "website": "http://sandiegoperfectsmiles.com/",
        "latitude": 32.78275,
        "longitude": -117.098264,
        "cleaning": 107,
        "filling": 175,
        "extraction": 155,
        "root_canal": 805,
        "crown": 965,
        "is_active": true,
        "fake_data": "Mock Data",
        "procedure": "Adult Cleaning",
        "cost": 107
    },
    {
        "_id": {
            "$oid": "5df57c592202d9a3bb6b5384"
        },
        "name": "Mission Family Dental",
        "abbreviation": "Mission",
        "address": "5995 Mission Gorge Rd",
        "address2": "",
        "city": "San Diego",
        "state": "CA",
        "postal_code": "92120",
        "area": "sd",
        "phone": "(619) 280-6500",
        "website": "http://sandiegoperfectsmiles.com/",
        "latitude": 32.78275,
        "longitude": -117.098264,
        "cleaning": 107,
        "filling": 175,
        "extraction": 155,
        "root_canal": 805,
        "crown": 965,
        "is_active": true,
        "fake_data": "Mock Data",
        "procedure": "Composite Filling",
        "cost": 175
    },
    {
        "_id": {
            "$oid": "5df57c592202d9a3bb6b5384"
        },
        "name": "Mission Family Dental",
        "abbreviation": "Mission",
        "address": "5995 Mission Gorge Rd",
        "address2": "",
        "city": "San Diego",
        "state": "CA",
        "postal_code": "92120",
        "area": "sd",
        "phone": "(619) 280-6500",
        "website": "http://sandiegoperfectsmiles.com/",
        "latitude": 32.78275,
        "longitude": -117.098264,
        "cleaning": 107,
        "filling": 175,
        "extraction": 155,
        "root_canal": 805,
        "crown": 965,
        "is_active": true,
        "fake_data": "Mock Data",
        "procedure": "Extraction",
        "cost": 155
    },
    {
        "_id": {
            "$oid": "5df57c592202d9a3bb6b5384"
        },
        "name": "Mission Family Dental",
        "abbreviation": "Mission",
        "address": "5995 Mission Gorge Rd",
        "address2": "",
        "city": "San Diego",
        "state": "CA",
        "postal_code": "92120",
        "area": "sd",
        "phone": "(619) 280-6500",
        "website": "http://sandiegoperfectsmiles.com/",
        "latitude": 32.78275,
        "longitude": -117.098264,
        "cleaning": 107,
        "filling": 175,
        "extraction": 155,
        "root_canal": 805,
        "crown": 965,
        "is_active": true,
        "fake_data": "Mock Data",
        "procedure": "Root Canal",
        "cost": 805
    },
    {
        "_id": {
            "$oid": "5df57c592202d9a3bb6b5384"
        },
        "name": "Mission Family Dental",
        "abbreviation": "Mission",
        "address": "5995 Mission Gorge Rd",
        "address2": "",
        "city": "San Diego",
        "state": "CA",
        "postal_code": "92120",
        "area": "sd",
        "phone": "(619) 280-6500",
        "website": "http://sandiegoperfectsmiles.com/",
        "latitude": 32.78275,
        "longitude": -117.098264,
        "cleaning": 107,
        "filling": 175,
        "extraction": 155,
        "root_canal": 805,
        "crown": 965,
        "is_active": true,
        "fake_data": "Mock Data",
        "procedure": "Porcelain Crown",
        "cost": 965
    },
    {
        "_id": {
            "$oid": "5df57cdf2202d9a3bb6b5385"
        },
        "name": "Linda Vista Dentistry",
        "abbreviation": "Linda Vista",
        "address": "7440 Beagle St",
        "address2": "",
        "city": "San Diego",
        "state": "CA",
        "postal_code": "92111",
        "area": "sd",
        "phone": "(858) 384-2083",
        "website": "",
        "latitude": 32.807663,
        "longitude": -117.160985,
        "cleaning": 110,
        "filling": 150,
        "extraction": 160,
        "root_canal": 810,
        "crown": 890,
        "is_active": true,
        "fake_data": "Mock Data",
        "procedure": "Adult Cleaning",
        "cost": 110
    },
    {
        "_id": {
            "$oid": "5df57cdf2202d9a3bb6b5385"
        },
        "name": "Linda Vista Dentistry",
        "abbreviation": "Linda Vista",
        "address": "7440 Beagle St",
        "address2": "",
        "city": "San Diego",
        "state": "CA",
        "postal_code": "92111",
        "area": "sd",
        "phone": "(858) 384-2083",
        "website": "",
        "latitude": 32.807663,
        "longitude": -117.160985,
        "cleaning": 110,
        "filling": 150,
        "extraction": 160,
        "root_canal": 810,
        "crown": 890,
        "is_active": true,
        "fake_data": "Mock Data",
        "procedure": "Composite Filling",
        "cost": 150
    },
    {
        "_id": {
            "$oid": "5df57cdf2202d9a3bb6b5385"
        },
        "name": "Linda Vista Dentistry",
        "abbreviation": "Linda Vista",
        "address": "7440 Beagle St",
        "address2": "",
        "city": "San Diego",
        "state": "CA",
        "postal_code": "92111",
        "area": "sd",
        "phone": "(858) 384-2083",
        "website": "",
        "latitude": 32.807663,
        "longitude": -117.160985,
        "cleaning": 110,
        "filling": 150,
        "extraction": 160,
        "root_canal": 810,
        "crown": 890,
        "is_active": true,
        "fake_data": "Mock Data",
        "procedure": "Extraction",
        "cost": 160
    },
    {
        "_id": {
            "$oid": "5df57cdf2202d9a3bb6b5385"
        },
        "name": "Linda Vista Dentistry",
        "abbreviation": "Linda Vista",
        "address": "7440 Beagle St",
        "address2": "",
        "city": "San Diego",
        "state": "CA",
        "postal_code": "92111",
        "area": "sd",
        "phone": "(858) 384-2083",
        "website": "",
        "latitude": 32.807663,
        "longitude": -117.160985,
        "cleaning": 110,
        "filling": 150,
        "extraction": 160,
        "root_canal": 810,
        "crown": 890,
        "is_active": true,
        "fake_data": "Mock Data",
        "procedure": "Root Canal",
        "cost": 810
    },
    {
        "_id": {
            "$oid": "5df57cdf2202d9a3bb6b5385"
        },
        "name": "Linda Vista Dentistry",
        "abbreviation": "Linda Vista",
        "address": "7440 Beagle St",
        "address2": "",
        "city": "San Diego",
        "state": "CA",
        "postal_code": "92111",
        "area": "sd",
        "phone": "(858) 384-2083",
        "website": "",
        "latitude": 32.807663,
        "longitude": -117.160985,
        "cleaning": 110,
        "filling": 150,
        "extraction": 160,
        "root_canal": 810,
        "crown": 890,
        "is_active": true,
        "fake_data": "Mock Data",
        "procedure": "Porcelain Crown",
        "cost": 890
    },
    {
        "_id": {
            "$oid": "5df57ee32202d9a3bb6b5386"
        },
        "name": "Mesa Dental",
        "abbreviation": "Mesa",
        "address": "7625 Mesa College Dr",
        "address2": "",
        "city": "San Diego",
        "state": "CA",
        "postal_code": "92111",
        "area": "sd",
        "phone": "(858) 877-9540",
        "website": "https://mesadentalsd.com/",
        "latitude": 32.800802,
        "longitude": -117.157321,
        "cleaning": 100,
        "filling": 130,
        "extraction": 150,
        "root_canal": 750,
        "crown": 1010,
        "is_active": true,
        "fake_data": "Mock Data",
        "procedure": "Adult Cleaning",
        "cost": 100
    },
    {
        "_id": {
            "$oid": "5df57ee32202d9a3bb6b5386"
        },
        "name": "Mesa Dental",
        "abbreviation": "Mesa",
        "address": "7625 Mesa College Dr",
        "address2": "",
        "city": "San Diego",
        "state": "CA",
        "postal_code": "92111",
        "area": "sd",
        "phone": "(858) 877-9540",
        "website": "https://mesadentalsd.com/",
        "latitude": 32.800802,
        "longitude": -117.157321,
        "cleaning": 100,
        "filling": 130,
        "extraction": 150,
        "root_canal": 750,
        "crown": 1010,
        "is_active": true,
        "fake_data": "Mock Data",
        "procedure": "Composite Filling",
        "cost": 130
    },
    {
        "_id": {
            "$oid": "5df57ee32202d9a3bb6b5386"
        },
        "name": "Mesa Dental",
        "abbreviation": "Mesa",
        "address": "7625 Mesa College Dr",
        "address2": "",
        "city": "San Diego",
        "state": "CA",
        "postal_code": "92111",
        "area": "sd",
        "phone": "(858) 877-9540",
        "website": "https://mesadentalsd.com/",
        "latitude": 32.800802,
        "longitude": -117.157321,
        "cleaning": 100,
        "filling": 130,
        "extraction": 150,
        "root_canal": 750,
        "crown": 1010,
        "is_active": true,
        "fake_data": "Mock Data",
        "procedure": "Extraction",
        "cost": 150
    },
    {
        "_id": {
            "$oid": "5df57ee32202d9a3bb6b5386"
        },
        "name": "Mesa Dental",
        "abbreviation": "Mesa",
        "address": "7625 Mesa College Dr",
        "address2": "",
        "city": "San Diego",
        "state": "CA",
        "postal_code": "92111",
        "area": "sd",
        "phone": "(858) 877-9540",
        "website": "https://mesadentalsd.com/",
        "latitude": 32.800802,
        "longitude": -117.157321,
        "cleaning": 100,
        "filling": 130,
        "extraction": 150,
        "root_canal": 750,
        "crown": 1010,
        "is_active": true,
        "fake_data": "Mock Data",
        "procedure": "Root Canal",
        "cost": 750
    },
    {
        "_id": {
            "$oid": "5df57ee32202d9a3bb6b5386"
        },
        "name": "Mesa Dental",
        "abbreviation": "Mesa",
        "address": "7625 Mesa College Dr",
        "address2": "",
        "city": "San Diego",
        "state": "CA",
        "postal_code": "92111",
        "area": "sd",
        "phone": "(858) 877-9540",
        "website": "https://mesadentalsd.com/",
        "latitude": 32.800802,
        "longitude": -117.157321,
        "cleaning": 100,
        "filling": 130,
        "extraction": 150,
        "root_canal": 750,
        "crown": 1010,
        "is_active": true,
        "fake_data": "Mock Data",
        "procedure": "Porcelain Crown",
        "cost": 1010
    },
    {
        "_id": {
            "$oid": "5dfce52e2fa10ed564c1c262"
        },
        "name": "Smile Builders",
        "abbreviation": "Smile Builders",
        "address": "Av Revolucion 993",
        "address2": "",
        "city": "Tijuana",
        "state": "baja",
        "postal_code": "22000",
        "area": "tj",
        "phone": "(619) 259-6751",
        "website": "https://smilebuilders.net/",
        "latitude": 32.526848,
        "longitude": -117.036049,
        "cleaning": 45,
        "filling": 75,
        "extraction": 80,
        "root_canal": 400,
        "crown": 550,
        "is_active": true,
        "fake_data": "Actual Data",
        "procedure": "Adult Cleaning",
        "cost": 45
    },
    {
        "_id": {
            "$oid": "5dfce52e2fa10ed564c1c262"
        },
        "name": "Smile Builders",
        "abbreviation": "Smile Builders",
        "address": "Av Revolucion 993",
        "address2": "",
        "city": "Tijuana",
        "state": "baja",
        "postal_code": "22000",
        "area": "tj",
        "phone": "(619) 259-6751",
        "website": "https://smilebuilders.net/",
        "latitude": 32.526848,
        "longitude": -117.036049,
        "cleaning": 45,
        "filling": 75,
        "extraction": 80,
        "root_canal": 400,
        "crown": 550,
        "is_active": true,
        "fake_data": "Actual Data",
        "procedure": "Composite Filling",
        "cost": 75
    },
    {
        "_id": {
            "$oid": "5dfce52e2fa10ed564c1c262"
        },
        "name": "Smile Builders",
        "abbreviation": "Smile Builders",
        "address": "Av Revolucion 993",
        "address2": "",
        "city": "Tijuana",
        "state": "baja",
        "postal_code": "22000",
        "area": "tj",
        "phone": "(619) 259-6751",
        "website": "https://smilebuilders.net/",
        "latitude": 32.526848,
        "longitude": -117.036049,
        "cleaning": 45,
        "filling": 75,
        "extraction": 80,
        "root_canal": 400,
        "crown": 550,
        "is_active": true,
        "fake_data": "Actual Data",
        "procedure": "Extraction",
        "cost": 80
    },
    {
        "_id": {
            "$oid": "5dfce52e2fa10ed564c1c262"
        },
        "name": "Smile Builders",
        "abbreviation": "Smile Builders",
        "address": "Av Revolucion 993",
        "address2": "",
        "city": "Tijuana",
        "state": "baja",
        "postal_code": "22000",
        "area": "tj",
        "phone": "(619) 259-6751",
        "website": "https://smilebuilders.net/",
        "latitude": 32.526848,
        "longitude": -117.036049,
        "cleaning": 45,
        "filling": 75,
        "extraction": 80,
        "root_canal": 400,
        "crown": 550,
        "is_active": true,
        "fake_data": "Actual Data",
        "procedure": "Root Canal",
        "cost": 400
    },
    {
        "_id": {
            "$oid": "5dfce52e2fa10ed564c1c262"
        },
        "name": "Smile Builders",
        "abbreviation": "Smile Builders",
        "address": "Av Revolucion 993",
        "address2": "",
        "city": "Tijuana",
        "state": "baja",
        "postal_code": "22000",
        "area": "tj",
        "phone": "(619) 259-6751",
        "website": "https://smilebuilders.net/",
        "latitude": 32.526848,
        "longitude": -117.036049,
        "cleaning": 45,
        "filling": 75,
        "extraction": 80,
        "root_canal": 400,
        "crown": 550,
        "is_active": true,
        "fake_data": "Actual Data",
        "procedure": "Porcelain Crown",
        "cost": 550
    },
    {
        "_id": {
            "$oid": "5dfce5ba2fa10ed564c1c263"
        },
        "name": "Dr Ignacio de la Vega",
        "abbreviation": "Vega",
        "address": "Calle Emiliano Zapata 1717",
        "address2": "",
        "city": "Tijuana",
        "state": "baja",
        "postal_code": "22000",
        "area": "tj",
        "phone": "(619) 399-3538",
        "website": "http://www.drdelavega.com/",
        "latitude": 32.480226,
        "longitude": -117.015894,
        "cleaning": 40,
        "filling": 65,
        "extraction": 85,
        "root_canal": 260,
        "crown": 475,
        "is_active": true,
        "fake_data": "Mock Data",
        "procedure": "Adult Cleaning",
        "cost": 40
    },
    {
        "_id": {
            "$oid": "5dfce5ba2fa10ed564c1c263"
        },
        "name": "Dr Ignacio de la Vega",
        "abbreviation": "Vega",
        "address": "Calle Emiliano Zapata 1717",
        "address2": "",
        "city": "Tijuana",
        "state": "baja",
        "postal_code": "22000",
        "area": "tj",
        "phone": "(619) 399-3538",
        "website": "http://www.drdelavega.com/",
        "latitude": 32.480226,
        "longitude": -117.015894,
        "cleaning": 40,
        "filling": 65,
        "extraction": 85,
        "root_canal": 260,
        "crown": 475,
        "is_active": true,
        "fake_data": "Mock Data",
        "procedure": "Composite Filling",
        "cost": 65
    },
    {
        "_id": {
            "$oid": "5dfce5ba2fa10ed564c1c263"
        },
        "name": "Dr Ignacio de la Vega",
        "abbreviation": "Vega",
        "address": "Calle Emiliano Zapata 1717",
        "address2": "",
        "city": "Tijuana",
        "state": "baja",
        "postal_code": "22000",
        "area": "tj",
        "phone": "(619) 399-3538",
        "website": "http://www.drdelavega.com/",
        "latitude": 32.480226,
        "longitude": -117.015894,
        "cleaning": 40,
        "filling": 65,
        "extraction": 85,
        "root_canal": 260,
        "crown": 475,
        "is_active": true,
        "fake_data": "Mock Data",
        "procedure": "Extraction",
        "cost": 85
    },
    {
        "_id": {
            "$oid": "5dfce5ba2fa10ed564c1c263"
        },
        "name": "Dr Ignacio de la Vega",
        "abbreviation": "Vega",
        "address": "Calle Emiliano Zapata 1717",
        "address2": "",
        "city": "Tijuana",
        "state": "baja",
        "postal_code": "22000",
        "area": "tj",
        "phone": "(619) 399-3538",
        "website": "http://www.drdelavega.com/",
        "latitude": 32.480226,
        "longitude": -117.015894,
        "cleaning": 40,
        "filling": 65,
        "extraction": 85,
        "root_canal": 260,
        "crown": 475,
        "is_active": true,
        "fake_data": "Mock Data",
        "procedure": "Root Canal",
        "cost": 260
    },
    {
        "_id": {
            "$oid": "5dfce5ba2fa10ed564c1c263"
        },
        "name": "Dr Ignacio de la Vega",
        "abbreviation": "Vega",
        "address": "Calle Emiliano Zapata 1717",
        "address2": "",
        "city": "Tijuana",
        "state": "baja",
        "postal_code": "22000",
        "area": "tj",
        "phone": "(619) 399-3538",
        "website": "http://www.drdelavega.com/",
        "latitude": 32.480226,
        "longitude": -117.015894,
        "cleaning": 40,
        "filling": 65,
        "extraction": 85,
        "root_canal": 260,
        "crown": 475,
        "is_active": true,
        "fake_data": "Mock Data",
        "procedure": "Porcelain Crown",
        "cost": 475
    },
    {
        "_id": {
            "$oid": "5dfce6692fa10ed564c1c264"
        },
        "name": "Advanced Smiles Dentistry",
        "abbreviation": "Adv Smiles",
        "address": "German Gedovius 10489",
        "address2": "",
        "city": "Tijuana",
        "state": "baja",
        "postal_code": "22010",
        "area": "tj",
        "phone": "(619) 488-1557",
        "website": "https://advancedsmilesdentistry.com/",
        "latitude": 32.519606,
        "longitude": -117.011157,
        "cleaning": 40,
        "filling": 40,
        "extraction": 90,
        "root_canal": 250,
        "crown": 450,
        "is_active": true,
        "fake_data": "Actual Data",
        "procedure": "Adult Cleaning",
        "cost": 40
    },
    {
        "_id": {
            "$oid": "5dfce6692fa10ed564c1c264"
        },
        "name": "Advanced Smiles Dentistry",
        "abbreviation": "Adv Smiles",
        "address": "German Gedovius 10489",
        "address2": "",
        "city": "Tijuana",
        "state": "baja",
        "postal_code": "22010",
        "area": "tj",
        "phone": "(619) 488-1557",
        "website": "https://advancedsmilesdentistry.com/",
        "latitude": 32.519606,
        "longitude": -117.011157,
        "cleaning": 40,
        "filling": 40,
        "extraction": 90,
        "root_canal": 250,
        "crown": 450,
        "is_active": true,
        "fake_data": "Actual Data",
        "procedure": "Composite Filling",
        "cost": 40
    },
    {
        "_id": {
            "$oid": "5dfce6692fa10ed564c1c264"
        },
        "name": "Advanced Smiles Dentistry",
        "abbreviation": "Adv Smiles",
        "address": "German Gedovius 10489",
        "address2": "",
        "city": "Tijuana",
        "state": "baja",
        "postal_code": "22010",
        "area": "tj",
        "phone": "(619) 488-1557",
        "website": "https://advancedsmilesdentistry.com/",
        "latitude": 32.519606,
        "longitude": -117.011157,
        "cleaning": 40,
        "filling": 40,
        "extraction": 90,
        "root_canal": 250,
        "crown": 450,
        "is_active": true,
        "fake_data": "Actual Data",
        "procedure": "Extraction",
        "cost": 90
    },
    {
        "_id": {
            "$oid": "5dfce6692fa10ed564c1c264"
        },
        "name": "Advanced Smiles Dentistry",
        "abbreviation": "Adv Smiles",
        "address": "German Gedovius 10489",
        "address2": "",
        "city": "Tijuana",
        "state": "baja",
        "postal_code": "22010",
        "area": "tj",
        "phone": "(619) 488-1557",
        "website": "https://advancedsmilesdentistry.com/",
        "latitude": 32.519606,
        "longitude": -117.011157,
        "cleaning": 40,
        "filling": 40,
        "extraction": 90,
        "root_canal": 250,
        "crown": 450,
        "is_active": true,
        "fake_data": "Actual Data",
        "procedure": "Root Canal",
        "cost": 250
    },
    {
        "_id": {
            "$oid": "5dfce6692fa10ed564c1c264"
        },
        "name": "Advanced Smiles Dentistry",
        "abbreviation": "Adv Smiles",
        "address": "German Gedovius 10489",
        "address2": "",
        "city": "Tijuana",
        "state": "baja",
        "postal_code": "22010",
        "area": "tj",
        "phone": "(619) 488-1557",
        "website": "https://advancedsmilesdentistry.com/",
        "latitude": 32.519606,
        "longitude": -117.011157,
        "cleaning": 40,
        "filling": 40,
        "extraction": 90,
        "root_canal": 250,
        "crown": 450,
        "is_active": true,
        "fake_data": "Actual Data",
        "procedure": "Porcelain Crown",
        "cost": 450
    },
    {
        "_id": {
            "$oid": "5dfce77e2fa10ed564c1c265"
        },
        "name": "I Love My Dentist",
        "abbreviation": "Love",
        "address": "Av Revolucion 868",
        "address2": "",
        "city": "Tijuana",
        "state": "baja",
        "postal_code": "22000",
        "area": "tj",
        "phone": "(619) 452-2823",
        "website": "https://ilovemydentist.com.mx",
        "latitude": 32.526848,
        "longitude": -117.036049,
        "cleaning": 45,
        "filling": 75,
        "extraction": 80,
        "root_canal": 400,
        "crown": 398,
        "is_active": true,
        "fake_data": "Actual Data",
        "procedure": "Adult Cleaning",
        "cost": 45
    },
    {
        "_id": {
            "$oid": "5dfce77e2fa10ed564c1c265"
        },
        "name": "I Love My Dentist",
        "abbreviation": "Love",
        "address": "Av Revolucion 868",
        "address2": "",
        "city": "Tijuana",
        "state": "baja",
        "postal_code": "22000",
        "area": "tj",
        "phone": "(619) 452-2823",
        "website": "https://ilovemydentist.com.mx",
        "latitude": 32.526848,
        "longitude": -117.036049,
        "cleaning": 45,
        "filling": 75,
        "extraction": 80,
        "root_canal": 400,
        "crown": 398,
        "is_active": true,
        "fake_data": "Actual Data",
        "procedure": "Composite Filling",
        "cost": 75
    },
    {
        "_id": {
            "$oid": "5dfce77e2fa10ed564c1c265"
        },
        "name": "I Love My Dentist",
        "abbreviation": "Love",
        "address": "Av Revolucion 868",
        "address2": "",
        "city": "Tijuana",
        "state": "baja",
        "postal_code": "22000",
        "area": "tj",
        "phone": "(619) 452-2823",
        "website": "https://ilovemydentist.com.mx",
        "latitude": 32.526848,
        "longitude": -117.036049,
        "cleaning": 45,
        "filling": 75,
        "extraction": 80,
        "root_canal": 400,
        "crown": 398,
        "is_active": true,
        "fake_data": "Actual Data",
        "procedure": "Extraction",
        "cost": 80
    },
    {
        "_id": {
            "$oid": "5dfce77e2fa10ed564c1c265"
        },
        "name": "I Love My Dentist",
        "abbreviation": "Love",
        "address": "Av Revolucion 868",
        "address2": "",
        "city": "Tijuana",
        "state": "baja",
        "postal_code": "22000",
        "area": "tj",
        "phone": "(619) 452-2823",
        "website": "https://ilovemydentist.com.mx",
        "latitude": 32.526848,
        "longitude": -117.036049,
        "cleaning": 45,
        "filling": 75,
        "extraction": 80,
        "root_canal": 400,
        "crown": 398,
        "is_active": true,
        "fake_data": "Actual Data",
        "procedure": "Root Canal",
        "cost": 400
    },
    {
        "_id": {
            "$oid": "5dfce77e2fa10ed564c1c265"
        },
        "name": "I Love My Dentist",
        "abbreviation": "Love",
        "address": "Av Revolucion 868",
        "address2": "",
        "city": "Tijuana",
        "state": "baja",
        "postal_code": "22000",
        "area": "tj",
        "phone": "(619) 452-2823",
        "website": "https://ilovemydentist.com.mx",
        "latitude": 32.526848,
        "longitude": -117.036049,
        "cleaning": 45,
        "filling": 75,
        "extraction": 80,
        "root_canal": 400,
        "crown": 398,
        "is_active": true,
        "fake_data": "Actual Data",
        "procedure": "Porcelain Crown",
        "cost": 398
    },
    {
        "_id": {
            "$oid": "5dfce7ef2fa10ed564c1c266"
        },
        "name": "Washington Dental Clinic",
        "abbreviation": "Washington",
        "address": "Av Revolucion 1673",
        "address2": "",
        "city": "Tijuana",
        "state": "baja",
        "postal_code": "22000",
        "area": "tj",
        "phone": "(619) 308-7098",
        "website": "http://washingtondentalclinics.com",
        "latitude": 32.526848,
        "longitude": -117.036049,
        "cleaning": 50,
        "filling": 40,
        "extraction": 40,
        "root_canal": 275,
        "crown": 275,
        "is_active": true,
        "fake_data": "Actual Data",
        "procedure": "Adult Cleaning",
        "cost": 50
    },
    {
        "_id": {
            "$oid": "5dfce7ef2fa10ed564c1c266"
        },
        "name": "Washington Dental Clinic",
        "abbreviation": "Washington",
        "address": "Av Revolucion 1673",
        "address2": "",
        "city": "Tijuana",
        "state": "baja",
        "postal_code": "22000",
        "area": "tj",
        "phone": "(619) 308-7098",
        "website": "http://washingtondentalclinics.com",
        "latitude": 32.526848,
        "longitude": -117.036049,
        "cleaning": 50,
        "filling": 40,
        "extraction": 40,
        "root_canal": 275,
        "crown": 275,
        "is_active": true,
        "fake_data": "Actual Data",
        "procedure": "Composite Filling",
        "cost": 40
    },
    {
        "_id": {
            "$oid": "5dfce7ef2fa10ed564c1c266"
        },
        "name": "Washington Dental Clinic",
        "abbreviation": "Washington",
        "address": "Av Revolucion 1673",
        "address2": "",
        "city": "Tijuana",
        "state": "baja",
        "postal_code": "22000",
        "area": "tj",
        "phone": "(619) 308-7098",
        "website": "http://washingtondentalclinics.com",
        "latitude": 32.526848,
        "longitude": -117.036049,
        "cleaning": 50,
        "filling": 40,
        "extraction": 40,
        "root_canal": 275,
        "crown": 275,
        "is_active": true,
        "fake_data": "Actual Data",
        "procedure": "Extraction",
        "cost": 40
    },
    {
        "_id": {
            "$oid": "5dfce7ef2fa10ed564c1c266"
        },
        "name": "Washington Dental Clinic",
        "abbreviation": "Washington",
        "address": "Av Revolucion 1673",
        "address2": "",
        "city": "Tijuana",
        "state": "baja",
        "postal_code": "22000",
        "area": "tj",
        "phone": "(619) 308-7098",
        "website": "http://washingtondentalclinics.com",
        "latitude": 32.526848,
        "longitude": -117.036049,
        "cleaning": 50,
        "filling": 40,
        "extraction": 40,
        "root_canal": 275,
        "crown": 275,
        "is_active": true,
        "fake_data": "Actual Data",
        "procedure": "Root Canal",
        "cost": 275
    },
    {
        "_id": {
            "$oid": "5dfce7ef2fa10ed564c1c266"
        },
        "name": "Washington Dental Clinic",
        "abbreviation": "Washington",
        "address": "Av Revolucion 1673",
        "address2": "",
        "city": "Tijuana",
        "state": "baja",
        "postal_code": "22000",
        "area": "tj",
        "phone": "(619) 308-7098",
        "website": "http://washingtondentalclinics.com",
        "latitude": 32.526848,
        "longitude": -117.036049,
        "cleaning": 50,
        "filling": 40,
        "extraction": 40,
        "root_canal": 275,
        "crown": 275,
        "is_active": true,
        "fake_data": "Actual Data",
        "procedure": "Porcelain Crown",
        "cost": 275
    },
    {
        "_id": {
            "$oid": "5dfce8856b96f8ef73a66196"
        },
        "name": "Liberty Dental Clinic",
        "abbreviation": "Liberty",
        "address": "Calle Benito Juarez 2da 2273",
        "address2": "",
        "city": "Tijuana",
        "state": "baja",
        "postal_code": "22000",
        "area": "tj",
        "phone": "(619) 319-8892",
        "website": "http://libertydentaltijuana.com/",
        "latitude": 32.535822,
        "longitude": -117.032179,
        "cleaning": 40,
        "filling": 39,
        "extraction": 45,
        "root_canal": 250,
        "crown": 225,
        "is_active": true,
        "fake_data": "Actual Data",
        "procedure": "Adult Cleaning",
        "cost": 40
    },
    {
        "_id": {
            "$oid": "5dfce8856b96f8ef73a66196"
        },
        "name": "Liberty Dental Clinic",
        "abbreviation": "Liberty",
        "address": "Calle Benito Juarez 2da 2273",
        "address2": "",
        "city": "Tijuana",
        "state": "baja",
        "postal_code": "22000",
        "area": "tj",
        "phone": "(619) 319-8892",
        "website": "http://libertydentaltijuana.com/",
        "latitude": 32.535822,
        "longitude": -117.032179,
        "cleaning": 40,
        "filling": 39,
        "extraction": 45,
        "root_canal": 250,
        "crown": 225,
        "is_active": true,
        "fake_data": "Actual Data",
        "procedure": "Composite Filling",
        "cost": 39
    },
    {
        "_id": {
            "$oid": "5dfce8856b96f8ef73a66196"
        },
        "name": "Liberty Dental Clinic",
        "abbreviation": "Liberty",
        "address": "Calle Benito Juarez 2da 2273",
        "address2": "",
        "city": "Tijuana",
        "state": "baja",
        "postal_code": "22000",
        "area": "tj",
        "phone": "(619) 319-8892",
        "website": "http://libertydentaltijuana.com/",
        "latitude": 32.535822,
        "longitude": -117.032179,
        "cleaning": 40,
        "filling": 39,
        "extraction": 45,
        "root_canal": 250,
        "crown": 225,
        "is_active": true,
        "fake_data": "Actual Data",
        "procedure": "Extraction",
        "cost": 45
    },
    {
        "_id": {
            "$oid": "5dfce8856b96f8ef73a66196"
        },
        "name": "Liberty Dental Clinic",
        "abbreviation": "Liberty",
        "address": "Calle Benito Juarez 2da 2273",
        "address2": "",
        "city": "Tijuana",
        "state": "baja",
        "postal_code": "22000",
        "area": "tj",
        "phone": "(619) 319-8892",
        "website": "http://libertydentaltijuana.com/",
        "latitude": 32.535822,
        "longitude": -117.032179,
        "cleaning": 40,
        "filling": 39,
        "extraction": 45,
        "root_canal": 250,
        "crown": 225,
        "is_active": true,
        "fake_data": "Actual Data",
        "procedure": "Root Canal",
        "cost": 250
    },
    {
        "_id": {
            "$oid": "5dfce8856b96f8ef73a66196"
        },
        "name": "Liberty Dental Clinic",
        "abbreviation": "Liberty",
        "address": "Calle Benito Juarez 2da 2273",
        "address2": "",
        "city": "Tijuana",
        "state": "baja",
        "postal_code": "22000",
        "area": "tj",
        "phone": "(619) 319-8892",
        "website": "http://libertydentaltijuana.com/",
        "latitude": 32.535822,
        "longitude": -117.032179,
        "cleaning": 40,
        "filling": 39,
        "extraction": 45,
        "root_canal": 250,
        "crown": 225,
        "is_active": true,
        "fake_data": "Actual Data",
        "procedure": "Porcelain Crown",
        "cost": 225
    },
    {
        "_id": {
            "$oid": "5dfce9006b96f8ef73a66197"
        },
        "name": "Dental Alvarez",
        "abbreviation": "Alvarez",
        "address": "Av Mision de Loreto 3045",
        "address2": "",
        "city": "Tijuana",
        "state": "baja",
        "postal_code": "22320",
        "area": "tj",
        "phone": "(619) 734-0233",
        "website": "https://dentalalvarez.com/",
        "latitude": 32.52055,
        "longitude": -116.973236,
        "cleaning": 50,
        "filling": 60,
        "extraction": 60,
        "root_canal": 275,
        "crown": 300,
        "is_active": true,
        "fake_data": "Actual Data",
        "procedure": "Adult Cleaning",
        "cost": 50
    },
    {
        "_id": {
            "$oid": "5dfce9006b96f8ef73a66197"
        },
        "name": "Dental Alvarez",
        "abbreviation": "Alvarez",
        "address": "Av Mision de Loreto 3045",
        "address2": "",
        "city": "Tijuana",
        "state": "baja",
        "postal_code": "22320",
        "area": "tj",
        "phone": "(619) 734-0233",
        "website": "https://dentalalvarez.com/",
        "latitude": 32.52055,
        "longitude": -116.973236,
        "cleaning": 50,
        "filling": 60,
        "extraction": 60,
        "root_canal": 275,
        "crown": 300,
        "is_active": true,
        "fake_data": "Actual Data",
        "procedure": "Composite Filling",
        "cost": 60
    },
    {
        "_id": {
            "$oid": "5dfce9006b96f8ef73a66197"
        },
        "name": "Dental Alvarez",
        "abbreviation": "Alvarez",
        "address": "Av Mision de Loreto 3045",
        "address2": "",
        "city": "Tijuana",
        "state": "baja",
        "postal_code": "22320",
        "area": "tj",
        "phone": "(619) 734-0233",
        "website": "https://dentalalvarez.com/",
        "latitude": 32.52055,
        "longitude": -116.973236,
        "cleaning": 50,
        "filling": 60,
        "extraction": 60,
        "root_canal": 275,
        "crown": 300,
        "is_active": true,
        "fake_data": "Actual Data",
        "procedure": "Extraction",
        "cost": 60
    },
    {
        "_id": {
            "$oid": "5dfce9006b96f8ef73a66197"
        },
        "name": "Dental Alvarez",
        "abbreviation": "Alvarez",
        "address": "Av Mision de Loreto 3045",
        "address2": "",
        "city": "Tijuana",
        "state": "baja",
        "postal_code": "22320",
        "area": "tj",
        "phone": "(619) 734-0233",
        "website": "https://dentalalvarez.com/",
        "latitude": 32.52055,
        "longitude": -116.973236,
        "cleaning": 50,
        "filling": 60,
        "extraction": 60,
        "root_canal": 275,
        "crown": 300,
        "is_active": true,
        "fake_data": "Actual Data",
        "procedure": "Root Canal",
        "cost": 275
    },
    {
        "_id": {
            "$oid": "5dfce9006b96f8ef73a66197"
        },
        "name": "Dental Alvarez",
        "abbreviation": "Alvarez",
        "address": "Av Mision de Loreto 3045",
        "address2": "",
        "city": "Tijuana",
        "state": "baja",
        "postal_code": "22320",
        "area": "tj",
        "phone": "(619) 734-0233",
        "website": "https://dentalalvarez.com/",
        "latitude": 32.52055,
        "longitude": -116.973236,
        "cleaning": 50,
        "filling": 60,
        "extraction": 60,
        "root_canal": 275,
        "crown": 300,
        "is_active": true,
        "fake_data": "Actual Data",
        "procedure": "Porcelain Crown",
        "cost": 300
    },
    {
        "_id": {
            "$oid": "5dfce9776b96f8ef73a66198"
        },
        "name": "Tijuana Clinic for Cosmetic Dentistry",
        "abbreviation": "TJ Clinic",
        "address": "Dr Atl 2084",
        "address2": "",
        "city": "Tijuana",
        "state": "baja",
        "postal_code": "22010",
        "area": "tj",
        "phone": "(619) 971-2297",
        "website": "https://www.tccdentistry.com/",
        "latitude": 32.524827,
        "longitude": -117.014099,
        "cleaning": 40,
        "filling": 50,
        "extraction": 80,
        "root_canal": 300,
        "crown": 350,
        "is_active": true,
        "fake_data": "Mock Data",
        "procedure": "Adult Cleaning",
        "cost": 40
    },
    {
        "_id": {
            "$oid": "5dfce9776b96f8ef73a66198"
        },
        "name": "Tijuana Clinic for Cosmetic Dentistry",
        "abbreviation": "TJ Clinic",
        "address": "Dr Atl 2084",
        "address2": "",
        "city": "Tijuana",
        "state": "baja",
        "postal_code": "22010",
        "area": "tj",
        "phone": "(619) 971-2297",
        "website": "https://www.tccdentistry.com/",
        "latitude": 32.524827,
        "longitude": -117.014099,
        "cleaning": 40,
        "filling": 50,
        "extraction": 80,
        "root_canal": 300,
        "crown": 350,
        "is_active": true,
        "fake_data": "Mock Data",
        "procedure": "Composite Filling",
        "cost": 50
    },
    {
        "_id": {
            "$oid": "5dfce9776b96f8ef73a66198"
        },
        "name": "Tijuana Clinic for Cosmetic Dentistry",
        "abbreviation": "TJ Clinic",
        "address": "Dr Atl 2084",
        "address2": "",
        "city": "Tijuana",
        "state": "baja",
        "postal_code": "22010",
        "area": "tj",
        "phone": "(619) 971-2297",
        "website": "https://www.tccdentistry.com/",
        "latitude": 32.524827,
        "longitude": -117.014099,
        "cleaning": 40,
        "filling": 50,
        "extraction": 80,
        "root_canal": 300,
        "crown": 350,
        "is_active": true,
        "fake_data": "Mock Data",
        "procedure": "Extraction",
        "cost": 80
    },
    {
        "_id": {
            "$oid": "5dfce9776b96f8ef73a66198"
        },
        "name": "Tijuana Clinic for Cosmetic Dentistry",
        "abbreviation": "TJ Clinic",
        "address": "Dr Atl 2084",
        "address2": "",
        "city": "Tijuana",
        "state": "baja",
        "postal_code": "22010",
        "area": "tj",
        "phone": "(619) 971-2297",
        "website": "https://www.tccdentistry.com/",
        "latitude": 32.524827,
        "longitude": -117.014099,
        "cleaning": 40,
        "filling": 50,
        "extraction": 80,
        "root_canal": 300,
        "crown": 350,
        "is_active": true,
        "fake_data": "Mock Data",
        "procedure": "Root Canal",
        "cost": 300
    },
    {
        "_id": {
            "$oid": "5dfce9776b96f8ef73a66198"
        },
        "name": "Tijuana Clinic for Cosmetic Dentistry",
        "abbreviation": "TJ Clinic",
        "address": "Dr Atl 2084",
        "address2": "",
        "city": "Tijuana",
        "state": "baja",
        "postal_code": "22010",
        "area": "tj",
        "phone": "(619) 971-2297",
        "website": "https://www.tccdentistry.com/",
        "latitude": 32.524827,
        "longitude": -117.014099,
        "cleaning": 40,
        "filling": 50,
        "extraction": 80,
        "root_canal": 300,
        "crown": 350,
        "is_active": true,
        "fake_data": "Mock Data",
        "procedure": "Porcelain Crown",
        "cost": 350
    },
    {
        "_id": {
            "$oid": "5dfce9fe6b96f8ef73a66199"
        },
        "name": "Odontologia Integral de Mexico",
        "abbreviation": "Odontologia",
        "address": "Josefa Ortiz de Dominguez 1310",
        "address2": "",
        "city": "Tijuana",
        "state": "baja",
        "postal_code": "22010",
        "area": "tj",
        "phone": "6646829464",
        "website": "http://www.bajadentistry.com/",
        "latitude": 32.522908,
        "longitude": -117.045351,
        "cleaning": 45,
        "filling": 45,
        "extraction": 75,
        "root_canal": 275,
        "crown": 400,
        "is_active": true,
        "fake_data": "Mock Data",
        "procedure": "Adult Cleaning",
        "cost": 45
    },
    {
        "_id": {
            "$oid": "5dfce9fe6b96f8ef73a66199"
        },
        "name": "Odontologia Integral de Mexico",
        "abbreviation": "Odontologia",
        "address": "Josefa Ortiz de Dominguez 1310",
        "address2": "",
        "city": "Tijuana",
        "state": "baja",
        "postal_code": "22010",
        "area": "tj",
        "phone": "6646829464",
        "website": "http://www.bajadentistry.com/",
        "latitude": 32.522908,
        "longitude": -117.045351,
        "cleaning": 45,
        "filling": 45,
        "extraction": 75,
        "root_canal": 275,
        "crown": 400,
        "is_active": true,
        "fake_data": "Mock Data",
        "procedure": "Composite Filling",
        "cost": 45
    },
    {
        "_id": {
            "$oid": "5dfce9fe6b96f8ef73a66199"
        },
        "name": "Odontologia Integral de Mexico",
        "abbreviation": "Odontologia",
        "address": "Josefa Ortiz de Dominguez 1310",
        "address2": "",
        "city": "Tijuana",
        "state": "baja",
        "postal_code": "22010",
        "area": "tj",
        "phone": "6646829464",
        "website": "http://www.bajadentistry.com/",
        "latitude": 32.522908,
        "longitude": -117.045351,
        "cleaning": 45,
        "filling": 45,
        "extraction": 75,
        "root_canal": 275,
        "crown": 400,
        "is_active": true,
        "fake_data": "Mock Data",
        "procedure": "Extraction",
        "cost": 75
    },
    {
        "_id": {
            "$oid": "5dfce9fe6b96f8ef73a66199"
        },
        "name": "Odontologia Integral de Mexico",
        "abbreviation": "Odontologia",
        "address": "Josefa Ortiz de Dominguez 1310",
        "address2": "",
        "city": "Tijuana",
        "state": "baja",
        "postal_code": "22010",
        "area": "tj",
        "phone": "6646829464",
        "website": "http://www.bajadentistry.com/",
        "latitude": 32.522908,
        "longitude": -117.045351,
        "cleaning": 45,
        "filling": 45,
        "extraction": 75,
        "root_canal": 275,
        "crown": 400,
        "is_active": true,
        "fake_data": "Mock Data",
        "procedure": "Root Canal",
        "cost": 275
    },
    {
        "_id": {
            "$oid": "5dfce9fe6b96f8ef73a66199"
        },
        "name": "Odontologia Integral de Mexico",
        "abbreviation": "Odontologia",
        "address": "Josefa Ortiz de Dominguez 1310",
        "address2": "",
        "city": "Tijuana",
        "state": "baja",
        "postal_code": "22010",
        "area": "tj",
        "phone": "6646829464",
        "website": "http://www.bajadentistry.com/",
        "latitude": 32.522908,
        "longitude": -117.045351,
        "cleaning": 45,
        "filling": 45,
        "extraction": 75,
        "root_canal": 275,
        "crown": 400,
        "is_active": true,
        "fake_data": "Mock Data",
        "procedure": "Porcelain Crown",
        "cost": 400
    },
    {
        "_id": {
            "$oid": "5dfcea826b96f8ef73a6619a"
        },
        "name": "American Bio-Dental Center",
        "abbreviation": "Bio-Dental",
        "address": "Blvd Agua Caliente 4558",
        "address2": "",
        "city": "Tijuana",
        "state": "baja",
        "postal_code": "22420",
        "area": "tj",
        "phone": "(877) 207-0824",
        "website": "https://americanbiodental.com/",
        "latitude": 32.512397,
        "longitude": -117.002315,
        "cleaning": 35,
        "filling": 75,
        "extraction": 200,
        "root_canal": 0,
        "crown": 550,
        "is_active": true,
        "fake_data": "Actual Data",
        "procedure": "Adult Cleaning",
        "cost": 35
    },
    {
        "_id": {
            "$oid": "5dfcea826b96f8ef73a6619a"
        },
        "name": "American Bio-Dental Center",
        "abbreviation": "Bio-Dental",
        "address": "Blvd Agua Caliente 4558",
        "address2": "",
        "city": "Tijuana",
        "state": "baja",
        "postal_code": "22420",
        "area": "tj",
        "phone": "(877) 207-0824",
        "website": "https://americanbiodental.com/",
        "latitude": 32.512397,
        "longitude": -117.002315,
        "cleaning": 35,
        "filling": 75,
        "extraction": 200,
        "root_canal": 0,
        "crown": 550,
        "is_active": true,
        "fake_data": "Actual Data",
        "procedure": "Composite Filling",
        "cost": 75
    },
    {
        "_id": {
            "$oid": "5dfcea826b96f8ef73a6619a"
        },
        "name": "American Bio-Dental Center",
        "abbreviation": "Bio-Dental",
        "address": "Blvd Agua Caliente 4558",
        "address2": "",
        "city": "Tijuana",
        "state": "baja",
        "postal_code": "22420",
        "area": "tj",
        "phone": "(877) 207-0824",
        "website": "https://americanbiodental.com/",
        "latitude": 32.512397,
        "longitude": -117.002315,
        "cleaning": 35,
        "filling": 75,
        "extraction": 200,
        "root_canal": 0,
        "crown": 550,
        "is_active": true,
        "fake_data": "Actual Data",
        "procedure": "Extraction",
        "cost": 200
    },
    {
        "_id": {
            "$oid": "5dfcea826b96f8ef73a6619a"
        },
        "name": "American Bio-Dental Center",
        "abbreviation": "Bio-Dental",
        "address": "Blvd Agua Caliente 4558",
        "address2": "",
        "city": "Tijuana",
        "state": "baja",
        "postal_code": "22420",
        "area": "tj",
        "phone": "(877) 207-0824",
        "website": "https://americanbiodental.com/",
        "latitude": 32.512397,
        "longitude": -117.002315,
        "cleaning": 35,
        "filling": 75,
        "extraction": 200,
        "root_canal": 0,
        "crown": 550,
        "is_active": true,
        "fake_data": "Actual Data",
        "procedure": "Root Canal",
        "cost": 0
    },
    {
        "_id": {
            "$oid": "5dfcea826b96f8ef73a6619a"
        },
        "name": "American Bio-Dental Center",
        "abbreviation": "Bio-Dental",
        "address": "Blvd Agua Caliente 4558",
        "address2": "",
        "city": "Tijuana",
        "state": "baja",
        "postal_code": "22420",
        "area": "tj",
        "phone": "(877) 207-0824",
        "website": "https://americanbiodental.com/",
        "latitude": 32.512397,
        "longitude": -117.002315,
        "cleaning": 35,
        "filling": 75,
        "extraction": 200,
        "root_canal": 0,
        "crown": 550,
        "is_active": true,
        "fake_data": "Actual Data",
        "procedure": "Porcelain Crown",
        "cost": 550
    }
]